{
"type": "FeatureCollection",
"name": "0",
"crs": { "type": "name", "properties": { "name": "urn:ogc:def:crs:EPSG::4269" } },
"features": [
{ "type": "Feature", "properties": { "id": "37003", "name": "Alexander", "FIPS": "37003", "Year": "2015", "State": "North Carolina", "FIPS State": "37", "County": "Alexander, NC", "Total Flight Days": "0" }, "geometry": { "type": "Polygon", "coordinates": [ [ [ -81.027953, 36.047275 ], [ -81.110107, 35.778905 ], [ -81.192262, 35.822721 ], [ -81.334662, 35.795336 ], [ -81.329185, 35.997983 ], [ -81.027953, 36.047275 ] ] ] } },
{ "type": "Feature", "properties": { "id": "37005", "name": "Alleghany", "FIPS": "37005", "Year": "2015", "State": "North Carolina", "FIPS State": "37", "County": "Alleghany, NC", "Total Flight Days": "0" }, "geometry": { "type": "Polygon", "coordinates": [ [ [ -80.978661, 36.562108 ], [ -80.901984, 36.562108 ], [ -80.967707, 36.403276 ], [ -81.082723, 36.430661 ], [ -81.252508, 36.364938 ], [ -81.351093, 36.573061 ], [ -80.978661, 36.562108 ] ] ] } },
{ "type": "Feature", "properties": { "id": "37011", "name": "Avery", "FIPS": "37011", "Year": "2015", "State": "North Carolina", "FIPS State": "37", "County": "Avery, NC", "Total Flight Days": "0" }, "geometry": { "type": "Polygon", "coordinates": [ [ [ -81.931648, 36.266353 ], [ -81.920695, 36.288261 ], [ -81.811156, 36.112998 ], [ -81.805679, 35.959644 ], [ -81.898787, 35.997983 ], [ -81.942602, 35.959644 ], [ -81.948079, 35.954167 ], [ -81.980941, 35.910352 ], [ -82.079526, 36.107521 ], [ -81.931648, 36.266353 ] ] ] } },
{ "type": "Feature", "properties": { "id": "37015", "name": "Bertie", "FIPS": "37015", "Year": "2015", "State": "North Carolina", "FIPS State": "37", "County": "Bertie, NC", "Total Flight Days": "0" }, "geometry": { "type": "Polygon", "coordinates": [ [ [ -76.706647, 36.244445 ], [ -76.668309, 36.01989 ], [ -76.690217, 35.943213 ], [ -76.761417, 35.866536 ], [ -77.325542, 36.07466 ], [ -77.29268, 36.167768 ], [ -77.210526, 36.244445 ], [ -76.706647, 36.244445 ] ] ] } },
{ "type": "Feature", "properties": { "id": "37023", "name": "Burke", "FIPS": "37023", "Year": "2015", "State": "North Carolina", "FIPS State": "37", "County": "Burke, NC", "Total Flight Days": "0" }, "geometry": { "type": "Polygon", "coordinates": [ [ [ -81.898787, 35.997983 ], [ -81.805679, 35.959644 ], [ -81.362047, 35.767951 ], [ -81.531832, 35.570781 ], [ -81.537309, 35.565304 ], [ -81.586601, 35.565304 ], [ -81.690663, 35.581735 ], [ -81.82211, 35.576258 ], [ -81.942602, 35.959644 ], [ -81.898787, 35.997983 ] ] ] } },
{ "type": "Feature", "properties": { "id": "37029", "name": "Camden", "FIPS": "37029", "Year": "2015", "State": "North Carolina", "FIPS State": "37", "County": "Camden, NC", "Total Flight Days": "0" }, "geometry": { "type": "Polygon", "coordinates": [ [ [ -76.493047, 36.551154 ], [ -76.312308, 36.551154 ], [ -75.885106, 36.162291 ], [ -76.049415, 36.184199 ], [ -76.493047, 36.512815 ], [ -76.542339, 36.551154 ], [ -76.493047, 36.551154 ] ] ] } },
{ "type": "Feature", "properties": { "id": "37033", "name": "Caswell", "FIPS": "37033", "Year": "2015", "State": "North Carolina", "FIPS State": "37", "County": "Caswell, NC", "Total Flight Days": "0" }, "geometry": { "type": "Polygon", "coordinates": [ [ [ -79.138409, 36.5402 ], [ -79.15484, 36.244445 ], [ -79.247948, 36.244445 ], [ -79.258902, 36.244445 ], [ -79.532749, 36.249922 ], [ -79.510841, 36.5402 ], [ -79.472502, 36.5402 ], [ -79.341056, 36.5402 ], [ -79.220563, 36.5402 ], [ -79.138409, 36.5402 ] ] ] } },
{ "type": "Feature", "properties": { "id": "37037", "name": "Chatham", "FIPS": "37037", "Year": "2015", "State": "North Carolina", "FIPS State": "37", "County": "Chatham, NC", "Total Flight Days": "0" }, "geometry": { "type": "Polygon", "coordinates": [ [ [ -79.187701, 35.872013 ], [ -79.017916, 35.861059 ], [ -78.908377, 35.866536 ], [ -78.913854, 35.581735 ], [ -78.968624, 35.521489 ], [ -79.242471, 35.570781 ], [ -79.35201, 35.516012 ], [ -79.554656, 35.516012 ], [ -79.543702, 35.844628 ], [ -79.247948, 35.87749 ], [ -79.187701, 35.872013 ] ] ] } },
{ "type": "Feature", "properties": { "id": "37043", "name": "Clay", "FIPS": "37043", "Year": "2015", "State": "North Carolina", "FIPS State": "37", "County": "Clay, NC", "Total Flight Days": "0" }, "geometry": { "type": "Polygon", "coordinates": [ [ [ -83.739039, 35.154534 ], [ -83.481623, 34.995703 ], [ -83.547346, 34.990226 ], [ -83.936209, 34.984749 ], [ -84.007409, 34.984749 ], [ -83.739039, 35.154534 ] ] ] } },
{ "type": "Feature", "properties": { "id": "37059", "name": "Davie", "FIPS": "37059", "Year": "2015", "State": "North Carolina", "FIPS State": "37", "County": "Davie, NC", "Total Flight Days": "0" }, "geometry": { "type": "Polygon", "coordinates": [ [ [ -80.69386, 36.052752 ], [ -80.49669, 36.047275 ], [ -80.398105, 35.970598 ], [ -80.458352, 35.740566 ], [ -80.688383, 35.861059 ], [ -80.710291, 35.850105 ], [ -80.69386, 36.052752 ] ] ] } },
{ "type": "Feature", "properties": { "id": "37063", "name": "Durham", "FIPS": "37063", "Year": "2015", "State": "North Carolina", "FIPS State": "37", "County": "Durham, NC", "Total Flight Days": "0" }, "geometry": { "type": "Polygon", "coordinates": [ [ [ -78.952193, 36.238968 ], [ -78.804316, 36.233491 ], [ -78.749546, 36.069183 ], [ -78.908377, 35.866536 ], [ -79.017916, 35.861059 ], [ -78.952193, 36.238968 ] ] ] } },
{ "type": "Feature", "properties": { "id": "37065", "name": "Edgecombe", "FIPS": "37065", "Year": "2015", "State": "North Carolina", "FIPS State": "37", "County": "Edgecombe, NC", "Total Flight Days": "0" }, "geometry": { "type": "Polygon", "coordinates": [ [ [ -77.697974, 36.151337 ], [ -77.402219, 36.00346 ], [ -77.352926, 35.817244 ], [ -77.413173, 35.822721 ], [ -77.659635, 35.674843 ], [ -77.82942, 35.866536 ], [ -77.82942, 35.866536 ], [ -77.697974, 36.151337 ] ] ] } },
{ "type": "Feature", "properties": { "id": "37067", "name": "Forsyth", "FIPS": "37067", "Year": "2015", "State": "North Carolina", "FIPS State": "37", "County": "Forsyth, NC", "Total Flight Days": "0" }, "geometry": { "type": "Polygon", "coordinates": [ [ [ -80.452875, 36.260876 ], [ -80.036627, 36.255399 ], [ -80.042104, 36.008937 ], [ -80.211889, 36.008937 ], [ -80.398105, 35.970598 ], [ -80.49669, 36.047275 ], [ -80.452875, 36.238968 ], [ -80.452875, 36.260876 ] ] ] } },
{ "type": "Feature", "properties": { "id": "37069", "name": "Franklin", "FIPS": "37069", "Year": "2015", "State": "North Carolina", "FIPS State": "37", "County": "Franklin, NC", "Total Flight Days": "0" }, "geometry": { "type": "Polygon", "coordinates": [ [ [ -78.163514, 36.249922 ], [ -78.004682, 36.200629 ], [ -78.053975, 36.134906 ], [ -78.256622, 35.817244 ], [ -78.546899, 36.01989 ], [ -78.497607, 36.173245 ], [ -78.305914, 36.266353 ], [ -78.163514, 36.249922 ] ] ] } },
{ "type": "Feature", "properties": { "id": "37071", "name": "Gaston", "FIPS": "37071", "Year": "2015", "State": "North Carolina", "FIPS State": "37", "County": "Gaston, NC", "Total Flight Days": "0" }, "geometry": { "type": "Polygon", "coordinates": [ [ [ -81.455155, 35.417427 ], [ -80.956753, 35.400996 ], [ -81.044384, 35.149057 ], [ -81.329185, 35.165488 ], [ -81.455155, 35.417427 ] ] ] } },
{ "type": "Feature", "properties": { "id": "37073", "name": "Gates", "FIPS": "37073", "Year": "2015", "State": "North Carolina", "FIPS State": "37", "County": "Gates, NC", "Total Flight Days": "0" }, "geometry": { "type": "Polygon", "coordinates": [ [ [ -76.914771, 36.551154 ], [ -76.542339, 36.551154 ], [ -76.493047, 36.512815 ], [ -76.454708, 36.375892 ], [ -76.55877, 36.353984 ], [ -76.695693, 36.293737 ], [ -76.914771, 36.545677 ], [ -76.914771, 36.551154 ] ] ] } },
{ "type": "Feature", "properties": { "id": "37075", "name": "Graham", "FIPS": "37075", "Year": "2015", "State": "North Carolina", "FIPS State": "37", "County": "Graham, NC", "Total Flight Days": "0" }, "geometry": { "type": "Polygon", "coordinates": [ [ [ -83.952639, 35.461243 ], [ -83.678792, 35.280503 ], [ -83.7007, 35.247642 ], [ -84.029317, 35.291457 ], [ -83.963593, 35.461243 ], [ -83.952639, 35.461243 ] ] ] } },
{ "type": "Feature", "properties": { "id": "37077", "name": "Granville", "FIPS": "37077", "Year": "2015", "State": "North Carolina", "FIPS State": "37", "County": "Granville, NC", "Total Flight Days": "0" }, "geometry": { "type": "Polygon", "coordinates": [ [ [ -78.470222, 36.5402 ], [ -78.459268, 36.5402 ], [ -78.497607, 36.173245 ], [ -78.546899, 36.01989 ], [ -78.749546, 36.069183 ], [ -78.804316, 36.233491 ], [ -78.798839, 36.5402 ], [ -78.733115, 36.5402 ], [ -78.470222, 36.5402 ] ] ] } },
{ "type": "Feature", "properties": { "id": "37079", "name": "Greene", "FIPS": "37079", "Year": "2015", "State": "North Carolina", "FIPS State": "37", "County": "Greene, NC", "Total Flight Days": "0" }, "geometry": { "type": "Polygon", "coordinates": [ [ [ -77.681543, 35.636505 ], [ -77.473419, 35.428381 ], [ -77.807512, 35.368135 ], [ -77.823943, 35.570781 ], [ -77.697974, 35.652935 ], [ -77.681543, 35.636505 ] ] ] } },
{ "type": "Feature", "properties": { "id": "37081", "name": "Guilford", "FIPS": "37081", "Year": "2015", "State": "North Carolina", "FIPS State": "37", "County": "Guilford, NC", "Total Flight Days": "0" }, "geometry": { "type": "Polygon", "coordinates": [ [ [ -80.036627, 36.255399 ], [ -80.036627, 36.255399 ], [ -79.532749, 36.238968 ], [ -79.543702, 35.899398 ], [ -80.036627, 35.921306 ], [ -80.047581, 35.921306 ], [ -80.042104, 36.008937 ], [ -80.036627, 36.255399 ] ] ] } },
{ "type": "Feature", "properties": { "id": "37087", "name": "Haywood", "FIPS": "37087", "Year": "2015", "State": "North Carolina", "FIPS State": "37", "County": "Haywood, NC", "Total Flight Days": "0" }, "geometry": { "type": "Polygon", "coordinates": [ [ [ -82.961313, 35.789859 ], [ -82.884636, 35.68032 ], [ -82.747713, 35.422904 ], [ -82.922975, 35.291457 ], [ -83.185868, 35.516012 ], [ -83.257068, 35.696751 ], [ -83.257068, 35.713182 ], [ -82.961313, 35.789859 ] ] ] } },
{ "type": "Feature", "properties": { "id": "37089", "name": "Henderson", "FIPS": "37089", "Year": "2015", "State": "North Carolina", "FIPS State": "37", "County": "Henderson, NC", "Total Flight Days": "0" }, "geometry": { "type": "Polygon", "coordinates": [ [ [ -82.408142, 35.472196 ], [ -82.265742, 35.466719 ], [ -82.260265, 35.395519 ], [ -82.353373, 35.192872 ], [ -82.572451, 35.14358 ], [ -82.747713, 35.422904 ], [ -82.408142, 35.472196 ] ] ] } },
{ "type": "Feature", "properties": { "id": "37091", "name": "Hertford", "FIPS": "37091", "Year": "2015", "State": "North Carolina", "FIPS State": "37", "County": "Hertford, NC", "Total Flight Days": "0" }, "geometry": { "type": "Polygon", "coordinates": [ [ [ -76.914771, 36.545677 ], [ -76.695693, 36.293737 ], [ -76.706647, 36.244445 ], [ -77.210526, 36.244445 ], [ -77.16671, 36.545677 ], [ -76.914771, 36.545677 ] ] ] } },
{ "type": "Feature", "properties": { "id": "37093", "name": "Hoke", "FIPS": "37093", "Year": "2015", "State": "North Carolina", "FIPS State": "37", "County": "Hoke, NC", "Total Flight Days": "0" }, "geometry": { "type": "Polygon", "coordinates": [ [ [ -79.127455, 35.165488 ], [ -79.10007, 35.176442 ], [ -79.034347, 34.951887 ], [ -79.346533, 34.836871 ], [ -79.461548, 35.044995 ], [ -79.127455, 35.165488 ] ] ] } },
{ "type": "Feature", "properties": { "id": "37095", "name": "Hyde", "FIPS": "37095", "Year": "2015", "State": "North Carolina", "FIPS State": "37", "County": "Hyde, NC", "Total Flight Days": "0" }, "geometry": { "type": "Polygon", "coordinates": [ [ [ -76.635447, 35.707705 ], [ -76.394462, 35.696751 ], [ -76.027507, 35.669366 ], [ -75.868676, 35.581735 ], [ -76.547816, 35.390042 ], [ -76.640924, 35.707705 ], [ -76.635447, 35.707705 ] ] ] } },
{ "type": "Feature", "properties": { "id": "37097", "name": "Iredell", "FIPS": "37097", "Year": "2015", "State": "North Carolina", "FIPS State": "37", "County": "Iredell, NC", "Total Flight Days": "0" }, "geometry": { "type": "Polygon", "coordinates": [ [ [ -80.880076, 36.058229 ], [ -80.69386, 36.052752 ], [ -80.710291, 35.850105 ], [ -80.737675, 35.505058 ], [ -80.781491, 35.505058 ], [ -80.907461, 35.516012 ], [ -80.945799, 35.488627 ], [ -80.96223, 35.548874 ], [ -81.110107, 35.778905 ], [ -81.027953, 36.047275 ], [ -80.880076, 36.058229 ] ] ] } },
{ "type": "Feature", "properties": { "id": "37099", "name": "Jackson", "FIPS": "37099", "Year": "2015", "State": "North Carolina", "FIPS State": "37", "County": "Jackson, NC", "Total Flight Days": "0" }, "geometry": { "type": "Polygon", "coordinates": [ [ [ -83.207776, 35.516012 ], [ -83.185868, 35.516012 ], [ -82.922975, 35.291457 ], [ -83.010606, 35.028564 ], [ -83.109191, 35.00118 ], [ -83.339222, 35.329796 ], [ -83.207776, 35.516012 ] ] ] } },
{ "type": "Feature", "properties": { "id": "37101", "name": "Johnston", "FIPS": "37101", "Year": "2015", "State": "North Carolina", "FIPS State": "37", "County": "Johnston, NC", "Total Flight Days": "0" }, "geometry": { "type": "Polygon", "coordinates": [ [ [ -78.256622, 35.817244 ], [ -78.190898, 35.729613 ], [ -78.064929, 35.587212 ], [ -78.305914, 35.28598 ], [ -78.541422, 35.313365 ], [ -78.711208, 35.521489 ], [ -78.256622, 35.817244 ] ] ] } },
{ "type": "Feature", "properties": { "id": "37103", "name": "Jones", "FIPS": "37103", "Year": "2015", "State": "North Carolina", "FIPS State": "37", "County": "Jones, NC", "Total Flight Days": "0" }, "geometry": { "type": "Polygon", "coordinates": [ [ [ -77.473419, 35.231211 ], [ -77.090033, 34.80401 ], [ -77.16671, 34.787579 ], [ -77.676066, 34.973795 ], [ -77.730835, 35.006656 ], [ -77.473419, 35.231211 ] ] ] } },
{ "type": "Feature", "properties": { "id": "37105", "name": "Lee", "FIPS": "37105", "Year": "2015", "State": "North Carolina", "FIPS State": "37", "County": "Lee, NC", "Total Flight Days": "0" }, "geometry": { "type": "Polygon", "coordinates": [ [ [ -79.242471, 35.570781 ], [ -78.968624, 35.521489 ], [ -79.182224, 35.307888 ], [ -79.35201, 35.516012 ], [ -79.242471, 35.570781 ] ] ] } },
{ "type": "Feature", "properties": { "id": "37111", "name": "McDowell", "FIPS": "37111", "Year": "2015", "State": "North Carolina", "FIPS State": "37", "County": "McDowell, NC", "Total Flight Days": "0" }, "geometry": { "type": "Polygon", "coordinates": [ [ [ -81.948079, 35.954167 ], [ -81.942602, 35.959644 ], [ -81.82211, 35.576258 ], [ -82.167157, 35.526966 ], [ -82.276696, 35.702228 ], [ -82.134295, 35.822721 ], [ -81.980941, 35.910352 ], [ -81.948079, 35.954167 ] ] ] } },
{ "type": "Feature", "properties": { "id": "37113", "name": "Macon", "FIPS": "37113", "Year": "2015", "State": "North Carolina", "FIPS State": "37", "County": "Macon, NC", "Total Flight Days": "0" }, "geometry": { "type": "Polygon", "coordinates": [ [ [ -83.339222, 35.329796 ], [ -83.109191, 35.00118 ], [ -83.481623, 34.995703 ], [ -83.739039, 35.154534 ], [ -83.7007, 35.247642 ], [ -83.678792, 35.280503 ], [ -83.339222, 35.329796 ] ] ] } },
{ "type": "Feature", "properties": { "id": "37115", "name": "Madison", "FIPS": "37115", "Year": "2015", "State": "North Carolina", "FIPS State": "37", "County": "Madison, NC", "Total Flight Days": "0" }, "geometry": { "type": "Polygon", "coordinates": [ [ [ -82.786051, 35.987029 ], [ -82.605312, 36.041798 ], [ -82.506727, 35.976075 ], [ -82.408142, 35.817244 ], [ -82.884636, 35.68032 ], [ -82.961313, 35.789859 ], [ -82.901067, 35.943213 ], [ -82.786051, 35.987029 ] ] ] } },
{ "type": "Feature", "properties": { "id": "37117", "name": "Martin", "FIPS": "37117", "Year": "2015", "State": "North Carolina", "FIPS State": "37", "County": "Martin, NC", "Total Flight Days": "0" }, "geometry": { "type": "Polygon", "coordinates": [ [ [ -77.325542, 36.07466 ], [ -76.761417, 35.866536 ], [ -76.843571, 35.707705 ], [ -77.172187, 35.73509 ], [ -77.352926, 35.817244 ], [ -77.402219, 36.00346 ], [ -77.325542, 36.07466 ] ] ] } },
{ "type": "Feature", "properties": { "id": "37119", "name": "Mecklenburg", "FIPS": "37119", "Year": "2015", "State": "North Carolina", "FIPS State": "37", "County": "Mecklenburg, NC", "Total Flight Days": "0" }, "geometry": { "type": "Polygon", "coordinates": [ [ [ -80.907461, 35.516012 ], [ -80.781491, 35.505058 ], [ -80.55146, 35.209303 ], [ -80.841737, 35.00118 ], [ -80.907461, 35.077857 ], [ -81.044384, 35.149057 ], [ -80.956753, 35.400996 ], [ -80.945799, 35.488627 ], [ -80.907461, 35.516012 ] ] ] } },
{ "type": "Feature", "properties": { "id": "37121", "name": "Mitchell", "FIPS": "37121", "Year": "2015", "State": "North Carolina", "FIPS State": "37", "County": "Mitchell, NC", "Total Flight Days": "0" }, "geometry": { "type": "Polygon", "coordinates": [ [ [ -82.079526, 36.107521 ], [ -81.980941, 35.910352 ], [ -82.134295, 35.822721 ], [ -82.419096, 36.07466 ], [ -82.221926, 36.156814 ], [ -82.079526, 36.107521 ] ] ] } },
{ "type": "Feature", "properties": { "id": "37123", "name": "Montgomery", "FIPS": "37123", "Year": "2015", "State": "North Carolina", "FIPS State": "37", "County": "Montgomery, NC", "Total Flight Days": "0" }, "geometry": { "type": "Polygon", "coordinates": [ [ [ -79.768257, 35.510535 ], [ -79.614903, 35.165488 ], [ -79.729918, 35.176442 ], [ -80.074966, 35.14358 ], [ -80.184505, 35.505058 ], [ -80.064012, 35.505058 ], [ -79.768257, 35.510535 ] ] ] } },
{ "type": "Feature", "properties": { "id": "37125", "name": "Moore", "FIPS": "37125", "Year": "2015", "State": "North Carolina", "FIPS State": "37", "County": "Moore, NC", "Total Flight Days": "0" }, "geometry": { "type": "Polygon", "coordinates": [ [ [ -79.35201, 35.516012 ], [ -79.182224, 35.307888 ], [ -79.094593, 35.192872 ], [ -79.10007, 35.176442 ], [ -79.127455, 35.165488 ], [ -79.461548, 35.044995 ], [ -79.614903, 35.165488 ], [ -79.768257, 35.510535 ], [ -79.554656, 35.516012 ], [ -79.35201, 35.516012 ] ] ] } },
{ "type": "Feature", "properties": { "id": "37127", "name": "Nash", "FIPS": "37127", "Year": "2015", "State": "North Carolina", "FIPS State": "37", "County": "Nash, NC", "Total Flight Days": "0" }, "geometry": { "type": "Polygon", "coordinates": [ [ [ -78.053975, 36.134906 ], [ -78.004682, 36.200629 ], [ -77.697974, 36.151337 ], [ -77.82942, 35.866536 ], [ -78.190898, 35.729613 ], [ -78.256622, 35.817244 ], [ -78.053975, 36.134906 ] ] ] } },
{ "type": "Feature", "properties": { "id": "37129", "name": "New Hanover", "FIPS": "37129", "Year": "2015", "State": "North Carolina", "FIPS State": "37", "County": "New Hanover, NC", "Total Flight Days": "0" }, "geometry": { "type": "Polygon", "coordinates": [ [ [ -77.960867, 34.376808 ], [ -77.714404, 34.294654 ], [ -77.938959, 33.927699 ], [ -78.032067, 34.332993 ], [ -77.960867, 34.376808 ] ] ] } },
{ "type": "Feature", "properties": { "id": "37131", "name": "Northampton", "FIPS": "37131", "Year": "2015", "State": "North Carolina", "FIPS State": "37", "County": "Northampton, NC", "Total Flight Days": "0" }, "geometry": { "type": "Polygon", "coordinates": [ [ [ -77.298157, 36.545677 ], [ -77.16671, 36.545677 ], [ -77.210526, 36.244445 ], [ -77.29268, 36.167768 ], [ -77.90062, 36.507338 ], [ -77.90062, 36.545677 ], [ -77.769174, 36.545677 ], [ -77.298157, 36.545677 ] ] ] } },
{ "type": "Feature", "properties": { "id": "37133", "name": "Onslow", "FIPS": "37133", "Year": "2015", "State": "North Carolina", "FIPS State": "37", "County": "Onslow, NC", "Total Flight Days": "0" }, "geometry": { "type": "Polygon", "coordinates": [ [ [ -77.676066, 34.973795 ], [ -77.16671, 34.787579 ], [ -77.111941, 34.639701 ], [ -77.517235, 34.442532 ], [ -77.681543, 34.721856 ], [ -77.676066, 34.973795 ] ] ] } },
{ "type": "Feature", "properties": { "id": "37135", "name": "Orange", "FIPS": "37135", "Year": "2015", "State": "North Carolina", "FIPS State": "37", "County": "Orange, NC", "Total Flight Days": "0" }, "geometry": { "type": "Polygon", "coordinates": [ [ [ -79.247948, 36.244445 ], [ -79.15484, 36.244445 ], [ -78.952193, 36.238968 ], [ -79.017916, 35.861059 ], [ -79.187701, 35.872013 ], [ -79.247948, 35.87749 ], [ -79.258902, 36.244445 ], [ -79.247948, 36.244445 ] ] ] } },
{ "type": "Feature", "properties": { "id": "37137", "name": "Pamlico", "FIPS": "37137", "Year": "2015", "State": "North Carolina", "FIPS State": "37", "County": "Pamlico, NC", "Total Flight Days": "0" }, "geometry": { "type": "Polygon", "coordinates": [ [ [ -76.624493, 35.253119 ], [ -76.602586, 35.335273 ], [ -76.646401, 35.01761 ], [ -76.712124, 34.979272 ], [ -76.89834, 35.253119 ], [ -76.624493, 35.253119 ] ] ] } },
{ "type": "Feature", "properties": { "id": "37139", "name": "Pasquotank", "FIPS": "37139", "Year": "2015", "State": "North Carolina", "FIPS State": "37", "County": "Pasquotank, NC", "Total Flight Days": "0" }, "geometry": { "type": "Polygon", "coordinates": [ [ [ -76.493047, 36.512815 ], [ -76.049415, 36.184199 ], [ -76.191815, 36.118475 ], [ -76.454708, 36.375892 ], [ -76.493047, 36.512815 ] ] ] } },
{ "type": "Feature", "properties": { "id": "37141", "name": "Pender", "FIPS": "37141", "Year": "2015", "State": "North Carolina", "FIPS State": "37", "County": "Pender, NC", "Total Flight Days": "0" }, "geometry": { "type": "Polygon", "coordinates": [ [ [ -78.015636, 34.732809 ], [ -77.681543, 34.721856 ], [ -77.517235, 34.442532 ], [ -77.714404, 34.294654 ], [ -77.960867, 34.376808 ], [ -78.032067, 34.332993 ], [ -78.125175, 34.365854 ], [ -78.163514, 34.354901 ], [ -78.256622, 34.398716 ], [ -78.256622, 34.55207 ], [ -78.114221, 34.721856 ], [ -78.015636, 34.732809 ] ] ] } },
{ "type": "Feature", "properties": { "id": "37143", "name": "Perquimans", "FIPS": "37143", "Year": "2015", "State": "North Carolina", "FIPS State": "37", "County": "Perquimans, NC", "Total Flight Days": "0" }, "geometry": { "type": "Polygon", "coordinates": [ [ [ -76.454708, 36.375892 ], [ -76.191815, 36.118475 ], [ -76.410893, 36.07466 ], [ -76.55877, 36.353984 ], [ -76.454708, 36.375892 ] ] ] } },
{ "type": "Feature", "properties": { "id": "37145", "name": "Person", "FIPS": "37145", "Year": "2015", "State": "North Carolina", "FIPS State": "37", "County": "Person, NC", "Total Flight Days": "0" }, "geometry": { "type": "Polygon", "coordinates": [ [ [ -79.138409, 36.5402 ], [ -78.798839, 36.5402 ], [ -78.804316, 36.233491 ], [ -78.952193, 36.238968 ], [ -79.15484, 36.244445 ], [ -79.138409, 36.5402 ] ] ] } },
{ "type": "Feature", "properties": { "id": "37147", "name": "Pitt", "FIPS": "37147", "Year": "2015", "State": "North Carolina", "FIPS State": "37", "County": "Pitt, NC", "Total Flight Days": "0" }, "geometry": { "type": "Polygon", "coordinates": [ [ [ -77.413173, 35.822721 ], [ -77.352926, 35.817244 ], [ -77.172187, 35.73509 ], [ -77.188618, 35.417427 ], [ -77.391265, 35.34075 ], [ -77.446034, 35.379088 ], [ -77.473419, 35.428381 ], [ -77.681543, 35.636505 ], [ -77.697974, 35.652935 ], [ -77.659635, 35.674843 ], [ -77.413173, 35.822721 ] ] ] } },
{ "type": "Feature", "properties": { "id": "37149", "name": "Polk", "FIPS": "37149", "Year": "2015", "State": "North Carolina", "FIPS State": "37", "County": "Polk, NC", "Total Flight Days": "0" }, "geometry": { "type": "Polygon", "coordinates": [ [ [ -82.09048, 35.357181 ], [ -81.969987, 35.187396 ], [ -82.216449, 35.198349 ], [ -82.353373, 35.192872 ], [ -82.260265, 35.395519 ], [ -82.09048, 35.357181 ] ] ] } },
{ "type": "Feature", "properties": { "id": "37169", "name": "Stokes", "FIPS": "37169", "Year": "2015", "State": "North Carolina", "FIPS State": "37", "County": "Stokes, NC", "Total Flight Days": "0" }, "geometry": { "type": "Polygon", "coordinates": [ [ [ -80.441921, 36.551154 ], [ -80.053058, 36.5402 ], [ -80.025673, 36.5402 ], [ -80.036627, 36.255399 ], [ -80.036627, 36.255399 ], [ -80.452875, 36.260876 ], [ -80.441921, 36.551154 ] ] ] } },
{ "type": "Feature", "properties": { "id": "37171", "name": "Surry", "FIPS": "37171", "Year": "2015", "State": "North Carolina", "FIPS State": "37", "County": "Surry, NC", "Total Flight Days": "0" }, "geometry": { "type": "Polygon", "coordinates": [ [ [ -80.83626, 36.556631 ], [ -80.611706, 36.556631 ], [ -80.441921, 36.551154 ], [ -80.452875, 36.260876 ], [ -80.452875, 36.238968 ], [ -80.874599, 36.238968 ], [ -80.967707, 36.403276 ], [ -80.901984, 36.562108 ], [ -80.83626, 36.556631 ], [ -80.83626, 36.556631 ] ] ] } },
{ "type": "Feature", "properties": { "id": "37173", "name": "Swain", "FIPS": "37173", "Year": "2015", "State": "North Carolina", "FIPS State": "37", "County": "Swain, NC", "Total Flight Days": "0" }, "geometry": { "type": "Polygon", "coordinates": [ [ [ -83.662362, 35.570781 ], [ -83.257068, 35.696751 ], [ -83.185868, 35.516012 ], [ -83.207776, 35.516012 ], [ -83.339222, 35.329796 ], [ -83.678792, 35.280503 ], [ -83.952639, 35.461243 ], [ -83.662362, 35.570781 ] ] ] } },
{ "type": "Feature", "properties": { "id": "37175", "name": "Transylvania", "FIPS": "37175", "Year": "2015", "State": "North Carolina", "FIPS State": "37", "County": "Transylvania, NC", "Total Flight Days": "0" }, "geometry": { "type": "Polygon", "coordinates": [ [ [ -82.747713, 35.422904 ], [ -82.572451, 35.14358 ], [ -82.764143, 35.066903 ], [ -82.89559, 35.055949 ], [ -83.010606, 35.028564 ], [ -82.922975, 35.291457 ], [ -82.747713, 35.422904 ] ] ] } },
{ "type": "Feature", "properties": { "id": "37177", "name": "Tyrrell", "FIPS": "37177", "Year": "2015", "State": "North Carolina", "FIPS State": "37", "County": "Tyrrell, NC", "Total Flight Days": "0" }, "geometry": { "type": "Polygon", "coordinates": [ [ [ -76.000122, 35.904875 ], [ -76.027507, 35.669366 ], [ -76.394462, 35.696751 ], [ -76.367077, 35.943213 ], [ -76.000122, 35.904875 ] ] ] } },
{ "type": "Feature", "properties": { "id": "37179", "name": "Union", "FIPS": "37179", "Year": "2015", "State": "North Carolina", "FIPS State": "37", "County": "Union, NC", "Total Flight Days": "0" }, "geometry": { "type": "Polygon", "coordinates": [ [ [ -80.55146, 35.209303 ], [ -80.507644, 35.187396 ], [ -80.277612, 35.198349 ], [ -80.321428, 34.814964 ], [ -80.562413, 34.814964 ], [ -80.841737, 35.00118 ], [ -80.55146, 35.209303 ] ] ] } },
{ "type": "Feature", "properties": { "id": "37181", "name": "Vance", "FIPS": "37181", "Year": "2015", "State": "North Carolina", "FIPS State": "37", "County": "Vance, NC", "Total Flight Days": "0" }, "geometry": { "type": "Polygon", "coordinates": [ [ [ -78.322345, 36.545677 ], [ -78.305914, 36.266353 ], [ -78.497607, 36.173245 ], [ -78.459268, 36.5402 ], [ -78.322345, 36.545677 ] ] ] } },
{ "type": "Feature", "properties": { "id": "37183", "name": "Wake", "FIPS": "37183", "Year": "2015", "State": "North Carolina", "FIPS State": "37", "County": "Wake, NC", "Total Flight Days": "0" }, "geometry": { "type": "Polygon", "coordinates": [ [ [ -78.749546, 36.069183 ], [ -78.546899, 36.01989 ], [ -78.256622, 35.817244 ], [ -78.711208, 35.521489 ], [ -78.913854, 35.581735 ], [ -78.908377, 35.866536 ], [ -78.749546, 36.069183 ] ] ] } },
{ "type": "Feature", "properties": { "id": "37185", "name": "Warren", "FIPS": "37185", "Year": "2015", "State": "North Carolina", "FIPS State": "37", "County": "Warren, NC", "Total Flight Days": "0" }, "geometry": { "type": "Polygon", "coordinates": [ [ [ -78.322345, 36.545677 ], [ -78.048498, 36.545677 ], [ -77.90062, 36.545677 ], [ -77.90062, 36.507338 ], [ -78.004682, 36.200629 ], [ -78.163514, 36.249922 ], [ -78.305914, 36.266353 ], [ -78.322345, 36.545677 ] ] ] } },
{ "type": "Feature", "properties": { "id": "37187", "name": "Washington", "FIPS": "37187", "Year": "2015", "State": "North Carolina", "FIPS State": "37", "County": "Washington, NC", "Total Flight Days": "0" }, "geometry": { "type": "Polygon", "coordinates": [ [ [ -76.367077, 35.943213 ], [ -76.394462, 35.696751 ], [ -76.635447, 35.707705 ], [ -76.640924, 35.707705 ], [ -76.843571, 35.707705 ], [ -76.761417, 35.866536 ], [ -76.690217, 35.943213 ], [ -76.367077, 35.943213 ] ] ] } },
{ "type": "Feature", "properties": { "id": "37195", "name": "Wilson", "FIPS": "37195", "Year": "2015", "State": "North Carolina", "FIPS State": "37", "County": "Wilson, NC", "Total Flight Days": "0" }, "geometry": { "type": "Polygon", "coordinates": [ [ [ -77.82942, 35.866536 ], [ -77.659635, 35.674843 ], [ -77.697974, 35.652935 ], [ -77.823943, 35.570781 ], [ -78.064929, 35.587212 ], [ -78.190898, 35.729613 ], [ -77.82942, 35.866536 ], [ -77.82942, 35.866536 ] ] ] } },
{ "type": "Feature", "properties": { "id": "37197", "name": "Yadkin", "FIPS": "37197", "Year": "2015", "State": "North Carolina", "FIPS State": "37", "County": "Yadkin, NC", "Total Flight Days": "0" }, "geometry": { "type": "Polygon", "coordinates": [ [ [ -80.452875, 36.238968 ], [ -80.49669, 36.047275 ], [ -80.69386, 36.052752 ], [ -80.880076, 36.058229 ], [ -80.874599, 36.238968 ], [ -80.452875, 36.238968 ] ] ] } },
{ "type": "Feature", "properties": { "id": "37199", "name": "Yancey", "FIPS": "37199", "Year": "2015", "State": "North Carolina", "FIPS State": "37", "County": "Yancey, NC", "Total Flight Days": "0" }, "geometry": { "type": "Polygon", "coordinates": [ [ [ -82.419096, 36.07466 ], [ -82.134295, 35.822721 ], [ -82.276696, 35.702228 ], [ -82.408142, 35.817244 ], [ -82.506727, 35.976075 ], [ -82.419096, 36.07466 ] ] ] } }
]
}
